{
  "thingsToGive": [
    {
      "user": "r.tomaszewski@gmail.com",
      "typeOfThingsToGive": "zabawki",
      "bagsQuantity": 4,
      "location": "Wrocław",
      "forWhom": "bezdomnym",
      "organisationName": "PCK",
      "street": "Grodzieńska 7, 15",
      "city": "Podczele",
      "zipCode": "78-106",
      "phone": "506853033",
      "date": "12.12.2020",
      "time": "12.00",
      "comments": "ssssssss",
      "id": 1
    },
    {
      "user": "r.tomaszewski@gmail.com",
      "typeOfThingsToGive": "zabawki",
      "bagsQuantity": 4,
      "location": "Wrocław",
      "forWhom": "bezdomnym",
      "organisationName": "PCK",
      "street": "Grodzieńska 7, 15",
      "city": "Podczele",
      "zipCode": "78-106",
      "phone": "506853033",
      "date": "12.12.2020",
      "time": "12.00",
      "comments": "ssssssss",
      "id": 2
    },
    {
      "user": "r.tomaszewski@gmail.com",
      "typeOfThingsToGive": "zabawki",
      "bagsQuantity": 4,
      "location": "Wrocław",
      "forWhom": "bezdomnym",
      "organisationName": "PCK",
      "street": "Grodzieńska 7, 15",
      "city": "Podczele",
      "zipCode": "78-106",
      "phone": "506853033",
      "date": "12.12.2020",
      "time": "12.00",
      "comments": "ssssssss",
      "id": 3
    },
    {
      "user": "r.tomaszewski@gmail.com",
      "typeOfThingsToGive": "zabawki",
      "bagsQuantity": 4,
      "location": "Wrocław",
      "forWhom": "bezdomnym",
      "organisationName": "PCK",
      "street": "Grodzieńska 7, 15",
      "city": "Podczele",
      "zipCode": "78-106",
      "phone": "506853033",
      "date": "12.12.2020",
      "time": "12.00",
      "comments": "ssssssss",
      "id": 4
    },
    {
      "user": "r.tomaszewski@gmail.com",
      "typeOfThingsToGive": "zabawki",
      "bagsQuantity": 4,
      "location": "Wrocław",
      "forWhom": "bezdomnym",
      "organisationName": "JAKAŚ TAM",
      "street": "Grodzieńska 7, 15",
      "city": "Podczele",
      "zipCode": "78-106",
      "phone": "506853033",
      "date": "12.12.2020",
      "time": "12.00",
      "comments": "ssssssss",
      "id": 5
    },
    {
      "user": "r.tomaszewski@gmail.com",
      "typeOfThingsToGive": "zabawki",
      "bagsQuantity": 4,
      "location": "Wrocław",
      "forWhom": "bezdomnym",
      "organisationName": "JESZCZE INNA",
      "street": "Grodzieńska 7, 15",
      "city": "Podczele",
      "zipCode": "78-106",
      "phone": "506853033",
      "date": "12.12.2020",
      "time": "12.00",
      "comments": "ssssssss",
      "id": 6
    },
    {
      "user": "r.tomaszewski@gmail.com",
      "typeOfThingsToGive": "zabawki",
      "bagsQuantity": 4,
      "location": "Wrocław",
      "forWhom": "bezdomnym",
      "organisationName": "INNA",
      "street": "Grodzieńska 7, 15",
      "city": "Podczele",
      "zipCode": "78-106",
      "phone": "506853033",
      "date": "12.12.2020",
      "time": "12.00",
      "comments": "ssssssss",
      "id": 7
    },
    {
      "user": "r.tomaszewski@gmail.com",
      "typeOfThingsToGive": "zabawki",
      "bagsQuantity": 4,
      "location": "Łódź",
      "forWhom": "bezdomnym",
      "organisationName": "LIGA DOBRA",
      "street": "Wrocławska, 83A/6",
      "city": "Jelenia Góra",
      "zipCode": "58999",
      "phone": "509998279",
      "date": "12.12.2020",
      "time": "12.00",
      "comments": "aaaaaaaaaaaaaaaaaaaaa",
      "id": 8
    },
    {
      "user": "r.tomaszewski@gmail.com",
      "typeOfThingsToGive": "ubrania, które nadają się do ponownego użycia",
      "bagsQuantity": 3,
      "location": "Poznań",
      "forWhom": "bezdomnym",
      "organisationName": "SUPER FUNDACJA",
      "street": "Wrocławska, 83A/6",
      "city": "Jelenia Góra",
      "zipCode": "58888",
      "phone": "33333333333333333333",
      "date": "12.12.2020",
      "time": "12.12",
      "comments": "sssssssssssssssssss",
      "id": 9
    }
  ],
  "users": [
    {
      "name": "Radosław",
      "surname": "Tomaszewski",
      "email": "r.tomaszewski@gmail.com",
      "password": "12345",
      "id": 1
    },
    {
      "name": "Marzena",
      "surname": "Rosiak",
      "email": "rosiak.marzena@tlen.pl",
      "password": "54321",
      "id": 2
    },
    {
      "name": "Tomek",
      "surname": "Kowalski",
      "email": "kowalski@gmail.com",
      "password": "12345",
      "id": 3
    }
  ]
}